[
  {
    "id": "istanbul-bakirkoy",
    "name": "İstanbul Bakırköy ŞÖNİM",
    "city": "İstanbul",
    "district": "Bakırköy",
    "address": "Yeşilköy Mahallesi Halkalı Caddesi No:30 Bakırköy/İstanbul",
    "phone": "0212 465 21 96",
    "lat": 41.0030,
    "lng": 28.9900,
    "hours": "7/24",
    "services": ["Psikolojik Destek", "Hukuki Danışmanlık", "Acil Barınma", "Sosyal Destek"],
    "description": "İstanbul Bakırköy Şiddet Önleme ve İzleme Merkezi",
    "specialties": ["Psikoloji", "Avukatlık", "Sosyal Hizmetler"],
    "isOfficial": true
  },
  {
    "id": "ankara-altindag",
    "name": "Ankara Altındağ ŞÖNİM",
    "city": "Ankara",
    "district": "Altındağ",
    "address": "Hacıbayram Mahallesi Anafartalar Caddesi No:66 Ulus/Ankara",
    "phone": "0312 348 36 86",
    "lat": 39.9334,
    "lng": 32.8597,
    "hours": "7/24",
    "services": ["Psikolojik Destek", "Hukuki Danışmanlık", "Acil Barınma", "Güvenli Nakil"],
    "description": "Ankara Altındağ Şiddet Önleme ve İzleme Merkezi",
    "specialties": ["Psikoloji", "Avukatlık", "Güvenlik"],
    "isOfficial": true
  },
  {
    "id": "izmir-bayrakli",
    "name": "İzmir Bayraklı ŞÖNİM",
    "city": "İzmir",
    "district": "Bayraklı",
    "address": "Soğukkuyu Mahallesi 1847/15 Sok. No:11 Bayraklı/İZMİR",
    "phone": "0232 363 33 41",
    "lat": 38.4655,
    "lng": 27.1753,
    "hours": "7/24",
    "services": ["Psikolojik Destek", "İş Bulma Desteği", "Eğitim Programları", "Çocuk Desteği"],
    "description": "İzmir Bayraklı Şiddet Önleme ve İzleme Merkezi",
    "specialties": ["Psikoloji", "İş Danışmanlığı", "Eğitim"],
    "isOfficial": true
  },
  {
    "id": "bursa-osmangazi",
    "name": "Bursa Osmangazi ŞÖNİM",
    "city": "Bursa",
    "district": "Osmangazi",
    "address": "Yahşibey Mahallesi Kayabaşı Sokak No:7 Osmangazi/BURSA",
    "phone": "0224 223 03 68",
    "lat": 40.1826,
    "lng": 29.0665,
    "hours": "7/24",
    "services": ["Psikolojik Destek", "Sağlık Hizmetleri", "Sosyal Destek", "Ekonomik Destek"],
    "description": "Bursa Osmangazi Şiddet Önleme ve İzleme Merkezi",
    "specialties": ["Psikoloji", "Tıp", "Sosyal Hizmetler"],
    "isOfficial": true
  },
  {
    "id": "antalya-muratpasa",
    "name": "Antalya Muratpaşa ŞÖNİM",
    "city": "Antalya",
    "district": "Muratpaşa",
    "address": "Kızılsaray Mahallesi Yener Ulusoy Bulvarı 68. Sokak No:4 Muratpaşa/ANTALYA",
    "phone": "0242 227 20 62",
    "lat": 36.8969,
    "lng": 30.7133,
    "hours": "7/24",
    "services": ["Psikolojik Destek", "Turizm İş Desteği", "Yabancı Dil Destek", "Mülteci Desteği"],
    "description": "Antalya Muratpaşa Şiddet Önleme ve İzleme Merkezi",
    "specialties": ["Psikoloji", "Turizm", "Dil"],
    "isOfficial": true
  },
  {
    "id": "adana-cukurova",
    "name": "Adana Çukurova ŞÖNİM",
    "city": "Adana",
    "district": "Çukurova",
    "address": "Huzurevleri Mahallesi 77136 Sokak No:4 Çukurova/ADANA",
    "phone": "0322 247 08 35",
    "lat": 37.0000,
    "lng": 35.3213,
    "hours": "7/24",
    "services": ["Psikolojik Destek", "Hukuki Danışmanlık", "Tarım İşçisi Desteği", "Sağlık"],
    "description": "Adana Çukurova Şiddet Önleme ve İzleme Merkezi",
    "specialties": ["Psikoloji", "Avukatlık", "Tarım"],
    "isOfficial": true
  },
  {
    "id": "gaziantep-sahinbey",
    "name": "Gaziantep Şahinbey ŞÖNİM",
    "city": "Gaziantep",
    "district": "Şahinbey",
    "address": "Karagöz Mahallesi Türkocağı Sokak No:5 Şahinbey/GAZİANTEP",
    "phone": "0342 220 71 10",
    "lat": 37.0662,
    "lng": 37.3833,
    "hours": "7/24",
    "services": ["Psikolojik Destek", "Mülteci Desteği", "Sığınma Evi", "Çocuk Desteği"],
    "description": "Gaziantep Şahinbey Şiddet Önleme ve İzleme Merkezi",
    "specialties": ["Psikoloji", "Mülteci Hizmetleri", "Pedagog"],
    "isOfficial": true
  },
  {
    "id": "konya-meram",
    "name": "Konya Meram ŞÖNİM",
    "city": "Konya",
    "district": "Meram",
    "address": "Pirebi Mahallesi Larende Caddesi No: 13 Meram/KONYA",
    "phone": "0332 321 01 83",
    "lat": 37.8746,
    "lng": 32.4932,
    "hours": "7/24",
    "services": ["Psikolojik Destek", "Geleneksel Destek", "Topluluk Desteği", "Eğitim"],
    "description": "Konya Meram Şiddet Önleme ve İzleme Merkezi",
    "specialties": ["Psikoloji", "Topluluk", "Eğitim"],
    "isOfficial": true
  },
  {
    "id": "eskisehir-odunpazari",
    "name": "Eskişehir Odunpazarı ŞÖNİM",
    "city": "Eskişehir",
    "district": "Odunpazarı",
    "address": "Huzur Mahallesi Yıldızlar Sokak No:44 Odunpazarı/ESKİŞEHİR",
    "phone": "0222 237 72 24",
    "lat": 39.7767,
    "lng": 30.5206,
    "hours": "7/24",
    "services": ["Psikolojik Destek", "Öğrenci Desteği", "İş Deneyimi", "Çocuk Bakımı"],
    "description": "Eskişehir Odunpazarı Şiddet Önleme ve İzleme Merkezi",
    "specialties": ["Psikoloji", "Eğitim", "Çocuk Bakımı"],
    "isOfficial": true
  },
  {
    "id": "samsun-ilkadim",
    "name": "Samsun İlkadım ŞÖNİM",
    "city": "Samsun",
    "district": "İlkadım",
    "address": "Ulugazi Mahallesi Şifayurdu Sokak No:10 İlkadım/SAMSUN",
    "phone": "0362 431 11 87",
    "lat": 41.2928,
    "lng": 36.3313,
    "hours": "7/24",
    "services": ["Psikolojik Destek", "Hukuki Danışmanlık", "Çocuk Desteği", "Eğitim"],
    "description": "Samsun İlkadım Şiddet Önleme ve İzleme Merkezi",
    "specialties": ["Psikoloji", "Avukatlık", "Eğitim"],
    "isOfficial": true
  }
]
